[
  {
    "city": "New York",
    "name": "New School University / Parsons School Of Design",
    "zip": 10011,
    "url": "http://www.parsons.edu/html/splash.html",
    "bbl": 1005760042,
    "streetname": "FIFTH AVENUE",
    "housenum": 66,
    "address": "66 FIFTH AVENUE",
    "bin": 1009619,
    "institution": "Private",
    "type": "Bachelors",
    "lon": -73.99465215,
    "lat": 40.73519616,
    "Programs": "Arts"
  },
  {
    "city": "New York",
    "name": "New School University / The New School",
    "zip": 10011,
    "url": "http://www.newschool.edu/",
    "bbl": 1005750017,
    "streetname": "WEST 12 STREET",
    "housenum": 66,
    "address": "66 WEST 12 STREET",
    "bin": 1083136,
    "institution": "Private",
    "type": "Bachelors",
    "lon": -73.99706966,
    "lat": 40.73546281,
    "Programs": "Comprehensive"
  },
  {
    "city": "New York",
    "name": "Metropolitan College",
    "zip": 10013,
    "url": "http://www.metropolitan.edu/",
    "bbl": 1002260001,
    "streetname": "VARICK STREET",
    "housenum": 75,
    "address": "75 VARICK STREET",
    "bin": 1002934,
    "institution": "Private",
    "type": "Bachelors",
    "lon": -74.00681944,
    "lat": 40.72344186,
    "Programs": "Niche"
  },
  {
    "city": "Fresh Meadows",
    "name": "School Of Nursing Of St. Vincents Catholic Medical Centers, The",
    "zip": 11365,
    "url": "http://www.svcmc.org/portal/training/allied_health.asp",
    "bbl": 4068890037,
    "streetname": "HORACE HARDING EXPRESSWAY",
    "housenum": "175-05",
    "address": "175-05 HORACE HARDING EXPRESSWAY",
    "bin": 4148794,
    "institution": "Private",
    "type": "Bachelors",
    "lon": -73.794393,
    "lat": 40.73944287,
    "Programs": "Health"
  },
  {
    "city": "Jamaica",
    "name": "St. John's University / Queens Campus",
    "zip": 11432,
    "url": "http://www.stjohns.edu/pls/portal30/sjudev.school.adminhome",
    "bbl": "",
    "streetname": "UTOPIA PARKWAY",
    "housenum": "80-00",
    "address": "80-00 UTOPIA PARKWAY",
    "bin": 0,
    "institution": "Private",
    "type": "Bachelors",
    "lon": -73.79169409,
    "lat": 40.72560043,
    "Programs": "Comprehensive"
  },
  {
    "city": "East Elmhurst",
    "name": "College Of Aeronautics, Laguardia Airport",
    "zip": 11369,
    "url": "http://www.aero.edu/",
    "bbl": 4010640002,
    "streetname": "23 AVENUE",
    "housenum": "86-01",
    "address": "86-01 23 AVENUE",
    "bin": 4437065,
    "institution": "Private",
    "type": "Bachelors",
    "lon": -73.88262669,
    "lat": 40.76781247,
    "Programs": "Niche"
  },
  {
    "city": "Staten Island",
    "name": "Wagner College",
    "zip": 10301,
    "url": "http://www.wagner.edu/",
    "bbl": 5006200001,
    "streetname": "CAMPUS ROAD",
    "housenum": 1,
    "address": "1 CAMPUS ROAD",
    "bin": 5113453,
    "institution": "Private",
    "type": "Bachelors",
    "lon": -74.09254228,
    "lat": 40.61477207,
    "Programs": "Liberal Arts"
  },
  {
    "city": "New York",
    "name": "Fashion Institute Of Technology (SUNY)",
    "zip": 10001,
    "url": "http://www.fitnyc.suny.edu",
    "bbl": "",
    "streetname": "7 AVENUE & WEST 27 STREET",
    "housenum": "",
    "address": "7 AVENUE & WEST 27 STREET",
    "bin": 1014252,
    "institution": "Public",
    "type": "Bachelors",
    "lon": -73.99395097,
    "lat": 40.74711054,
    "Programs": "Arts"
  },
  {
    "city": "Bronx",
    "name": "Herbert H Lehman College (CUNY)",
    "zip": 10468,
    "url": "http://www.lehman.cuny.edu",
    "bbl": 2032470165,
    "streetname": "BEDFORD PARK BLVD WEST",
    "housenum": 250,
    "address": "250 BEDFORD PARK BLVD WEST",
    "bin": 2097309,
    "institution": "Public",
    "type": "Bachelors",
    "lon": -73.89290954,
    "lat": 40.87459002,
    "Programs": "Comprehensive"
  },
  {
    "city": "Bronx",
    "name": "Eugenio Maria De Hostos Community Coll (CUNY)",
    "zip": 10451,
    "url": "http://www.hostos.cuny.edu",
    "bbl": 2023430032,
    "streetname": "GRAND CONCOURSE",
    "housenum": 500,
    "address": "500 GRAND CONCOURSE",
    "bin": 2001019,
    "institution": "Public",
    "type": "Community",
    "lon": -73.92693175,
    "lat": 40.81782605,
    "Programs": "Comprehensive"
  },
  {
    "city": "Bronx",
    "name": "Bronx Community College (CUNY)",
    "zip": 10453,
    "url": "http://www.bcc.cuny.edu",
    "bbl": 2032100092,
    "streetname": "WEST 181 STREET",
    "housenum": 80,
    "address": "80 WEST 181 STREET",
    "bin": 2014573,
    "institution": "Public",
    "type": "Community",
    "lon": -73.9088325,
    "lat": 40.85681411,
    "Programs": "Comprehensive"
  },
  {
    "city": "Brooklyn",
    "name": "Medgar Evers College (CUNY)",
    "zip": 11225,
    "url": "http://www.mec.cuny.edu",
    "bbl": 3012940001,
    "streetname": "BEDFORD AVENUE",
    "housenum": 1650,
    "address": "1650 BEDFORD AVENUE",
    "bin": 3034075,
    "institution": "Public",
    "type": "Bachelors",
    "lon": -73.95764418,
    "lat": 40.66633783,
    "Programs": "Comprehensive"
  },
  {
    "city": "Brooklyn",
    "name": "Brooklyn College (CUNY)",
    "zip": 11210,
    "url": "http://www.brooklyn.cuny.edu",
    "bbl": 3075520100,
    "streetname": "BEDFORD AVENUE",
    "housenum": 2900,
    "address": "2900 BEDFORD AVENUE",
    "bin": 3347326,
    "institution": "Public",
    "type": "Bachelors",
    "lon": -73.95348409,
    "lat": 40.63176555,
    "Programs": "Comprehensive"
  },
  {
    "city": "Brooklyn",
    "name": "Nyc Technical College (CUNY)",
    "zip": 11201,
    "url": "http://www.nyctc.cuny.edu",
    "bbl": 3001280001,
    "streetname": "JAY STREET",
    "housenum": 300,
    "address": "300 JAY STREET",
    "bin": 3335891,
    "institution": "Public",
    "type": "Bachelors",
    "lon": -73.98766333,
    "lat": 40.69552146,
    "Programs": "Comprehensive"
  },
  {
    "city": "Brooklyn",
    "name": "Health Science Center At Brooklyn (SUNY)",
    "zip": 11203,
    "url": "http://www.hscbklyn.edu",
    "bbl": 3048380001,
    "streetname": "CLARKSON AVENUE",
    "housenum": 450,
    "address": "450 CLARKSON AVENUE",
    "bin": 3336186,
    "institution": "Public",
    "type": "Bachelors",
    "lon": -73.94494355,
    "lat": 40.65507268,
    "Programs": "Health"
  },
  {
    "city": "New York",
    "name": "Hunter College School Social Work (CUNY)",
    "zip": 10021,
    "url": "http://www.hunter.cuny.edu",
    "bbl": 1015080012,
    "streetname": "EAST 79 STREET",
    "housenum": 129,
    "address": "129 EAST 79 STREET",
    "bin": 1047468,
    "institution": "Public",
    "type": "Bachelors",
    "lon": -73.95911734,
    "lat": 40.77535115,
    "Programs": "Niche"
  },
  {
    "city": "New York",
    "name": "Bernard M Baruch College (CUNY)",
    "zip": 10010,
    "url": "http://www.baruch.cuny.edu",
    "bbl": 1008800024,
    "streetname": "EAST 24 STREET",
    "housenum": 155,
    "address": "155 EAST 24 STREET",
    "bin": 1086514,
    "institution": "Public",
    "type": "Bachelors",
    "lon": -73.98339829,
    "lat": 40.74021908,
    "Programs": "Comprehensive"
  },
  {
    "city": "New York",
    "name": "Borough Of Manhattan Community College (CUNY)",
    "zip": 10013,
    "url": "http://www.bmcc.cuny.edu",
    "bbl": 1001420050,
    "streetname": "CHAMBERS STREET",
    "housenum": 199,
    "address": "199 CHAMBERS STREET",
    "bin": 1066406,
    "institution": "Public",
    "type": "Community",
    "lon": -74.01183076,
    "lat": 40.71865472,
    "Programs": "Comprehensive"
  },
  {
    "city": "New York",
    "name": "Nys College Of Optometry (SUNY)",
    "zip": 10036,
    "url": "http://www.sunyopt.edu",
    "bbl": 1012580018,
    "streetname": "WEST 42 STREET",
    "housenum": 33,
    "address": "33 WEST 42 STREET",
    "bin": 1034197,
    "institution": "Public",
    "type": "Bachelors",
    "lon": -73.98218892,
    "lat": 40.75449403,
    "Programs": "Health"
  },
  {
    "city": "New York",
    "name": "CUNY Grad School&University Center (CUNY)",
    "zip": 10016,
    "url": "http://www.gc.cuny.edu",
    "bbl": 1008647502,
    "streetname": "FIFTH AVENUE",
    "housenum": 365,
    "address": "365 FIFTH AVENUE",
    "bin": 1017097,
    "institution": "Public",
    "type": "Graduate",
    "lon": -73.98348992,
    "lat": 40.74845551,
    "Programs": "Comprehensive"
  },
  {
    "city": "New York",
    "name": "Baruch Grad Sch Of Politcal Management",
    "zip": 10010,
    "url": "http://www.baruch.cuny.edu",
    "bbl": 1008800024,
    "streetname": "LEXINGTON AVENUE",
    "housenum": 55,
    "address": "55 LEXINGTON AVENUE",
    "bin": 1086514,
    "institution": "Public",
    "type": "Graduate",
    "lon": -73.98339829,
    "lat": 40.74021908,
    "Programs": "Niche"
  },
  {
    "city": "New York",
    "name": "Hunter College (CUNY)",
    "zip": 10021,
    "url": "http://www.hunter.cuny.edu",
    "bbl": 1014030001,
    "streetname": "PARK AVENUE",
    "housenum": 695,
    "address": "695 PARK AVENUE",
    "bin": 1081419,
    "institution": "Public",
    "type": "Bachelors",
    "lon": -73.96474223,
    "lat": 40.76856945,
    "Programs": "Comprehensive"
  },
  {
    "city": "New York",
    "name": "John Jay College Criminal Justice (CUNY)",
    "zip": 10019,
    "url": "http://www.jjay.cuny.edu",
    "bbl": 1010870025,
    "streetname": "10 AVENUE",
    "housenum": 899,
    "address": "899 10 AVENUE",
    "bin": 1027085,
    "institution": "Public",
    "type": "Bachelors",
    "lon": -73.98825337,
    "lat": 40.77027928,
    "Programs": "Comprehensive"
  },
  {
    "city": "Oakland Gardens",
    "name": "Queensborough Community College (CUNY)",
    "zip": 11364,
    "url": "http://www.qcc.cuny.edu",
    "bbl": 4074900002,
    "streetname": "56 AVENUE",
    "housenum": "222-05",
    "address": "222-05 56 AVENUE",
    "bin": 4444187,
    "institution": "Public",
    "type": "Community",
    "lon": -73.75759791,
    "lat": 40.75383842,
    "Programs": "Comprehensive"
  },
  {
    "city": "Long Island City",
    "name": "Fiorello H Laguardia Community College (CUNY)",
    "zip": 11101,
    "url": "http://www.lagcc.cuny.edu",
    "bbl": 4002780001,
    "streetname": "THOMSON AVENUE",
    "housenum": "31-10",
    "address": "31-10 THOMSON AVENUE",
    "bin": 4003534,
    "institution": "Public",
    "type": "Community",
    "lon": -73.93512379,
    "lat": 40.74399569,
    "Programs": "Comprehensive"
  },
  {
    "city": "Flushing",
    "name": "School Of Law At Queens College (CUNY)",
    "zip": 11367,
    "url": "http://web.law.cuny.edu",
    "bbl": 4065070030,
    "streetname": "MAIN STREET",
    "housenum": "65-21",
    "address": "65-21 MAIN STREET",
    "bin": 4141868,
    "institution": "Public",
    "type": "Graduate",
    "lon": -73.82453915,
    "lat": 40.73710832,
    "Programs": "Law"
  },
  {
    "city": "Flushing",
    "name": "Queens College (CUNY)",
    "zip": 11367,
    "url": "http://www.qc.edu",
    "bbl": 4065170001,
    "streetname": "KISSENA BOULEVARD",
    "housenum": "65-30",
    "address": "65-30 KISSENA BOULEVARD",
    "bin": 4141870,
    "institution": "Public",
    "type": "Bachelors",
    "lon": -73.81829898,
    "lat": 40.73595481,
    "Programs": "Comprehensive"
  },
  {
    "city": "Jamaica",
    "name": "York College (CUNY)",
    "zip": 11433,
    "url": "http://www.york.cuny.edu",
    "bbl": 4101040043,
    "streetname": "GUY R BREWER BOULEVARD",
    "housenum": "94-20",
    "address": "94-20 GUY R BREWER BOULEVARD",
    "bin": 4215630,
    "institution": "Public",
    "type": "Bachelors",
    "lon": -73.79625693,
    "lat": 40.7017297,
    "Programs": "Comprehensive"
  },
  {
    "city": "Staten Island",
    "name": "College Of Staten Island (CUNY)",
    "zip": 10314,
    "url": "http://www.csi.cuny.edu",
    "bbl": 5020400001,
    "streetname": "VICTORY BOULEVARD",
    "housenum": 2800,
    "address": "2800 VICTORY BOULEVARD",
    "bin": 5131068,
    "institution": "Public",
    "type": "Bachelors",
    "lon": -74.14887612,
    "lat": 40.60063484,
    "Programs": "Comprehensive"
  },
  {
    "city": "Bronx",
    "name": "Fordham University",
    "zip": 10458,
    "url": "http://www.fordham.edu/",
    "bbl": 2032730001,
    "streetname": "EAST FORDHAM ROAD",
    "housenum": 441,
    "address": "441 EAST FORDHAM ROAD",
    "bin": 2102025,
    "institution": "Private",
    "type": "Bachelors",
    "lon": -73.88739013,
    "lat": 40.86125886,
    "Programs": "Comprehensive"
  },
  {
    "city": "Bronx",
    "name": "Manhattan College",
    "zip": 10471,
    "url": "http://www.manhattan.edu/",
    "bbl": 2058030801,
    "streetname": "MANHATTAN COLLEGE PARKWAY",
    "housenum": 4513,
    "address": "4513 MANHATTAN COLLEGE PARKWAY",
    "bin": 2087584,
    "institution": "Private",
    "type": "Bachelors",
    "lon": -73.90190578,
    "lat": 40.88976712,
    "Programs": "Liberal Arts"
  },
  {
    "city": "Bronx",
    "name": "College Of Mount St. Vincent",
    "zip": 10471,
    "url": "http://www.cmsv.edu/",
    "bbl": 2059580001,
    "streetname": "RIVERDALE AVENUE",
    "housenum": 6301,
    "address": "6301 RIVERDALE AVENUE",
    "bin": 2098636,
    "institution": "Private",
    "type": "Bachelors",
    "lon": -73.90284544,
    "lat": 40.91263943,
    "Programs": "Liberal Arts"
  },
  {
    "city": "Brooklyn",
    "name": "Long Island University / Brooklyn Campus",
    "zip": 11201,
    "url": "http://www.liu.edu/liu_start.html",
    "bbl": 3020850001,
    "streetname": "UNIVERSITY PLAZA",
    "housenum": 1,
    "address": "1 UNIVERSITY PLAZA",
    "bin": 3338885,
    "institution": "Private",
    "type": "Bachelors",
    "lon": -73.98129553,
    "lat": 40.69169977,
    "Programs": "Comprehensive"
  },
  {
    "city": "Brooklyn",
    "name": "St. Francis College",
    "zip": 11201,
    "url": "http://www.stfranciscollege.edu/",
    "bbl": 3002550036,
    "streetname": "REMSEN STREET",
    "housenum": 180,
    "address": "180 REMSEN STREET",
    "bin": 3335934,
    "institution": "Private",
    "type": "Bachelors",
    "lon": -73.99211098,
    "lat": 40.69306856,
    "Programs": "Liberal Arts"
  },
  {
    "city": "Brooklyn",
    "name": "Boricua College, Northside Center",
    "zip": 11211,
    "url": "http://www.boricuacollege.edu/",
    "bbl": 3023360018,
    "streetname": "NORTH 6 STREET",
    "housenum": 186,
    "address": "186 NORTH 6 STREET",
    "bin": 3062216,
    "institution": "Private",
    "type": "Bachelors",
    "lon": -73.95775285,
    "lat": 40.7165809,
    "Programs": "Comprehensive"
  },
  {
    "city": "Brooklyn",
    "name": "Pratt Institute",
    "zip": 11205,
    "url": "http://www.pratt.edu/",
    "bbl": 3019200001,
    "streetname": "WILLOUGHBY AVENUE",
    "housenum": 200,
    "address": "200 WILLOUGHBY AVENUE",
    "bin": 3334961,
    "institution": "Private",
    "type": "Bachelors",
    "lon": -73.96417134,
    "lat": 40.69179152,
    "Programs": "Arts"
  },
  {
    "city": "Brooklyn",
    "name": "St. Joseph's College / Brooklyn Campus",
    "zip": 11205,
    "url": "http://www.sjcny.edu/home.html",
    "bbl": 3019160013,
    "streetname": "CLINTON AVENUE",
    "housenum": 245,
    "address": "245 CLINTON AVENUE",
    "bin": 3332264,
    "institution": "Private",
    "type": "Bachelors",
    "lon": -73.96769006,
    "lat": 40.69052201,
    "Programs": "Liberal Arts"
  },
  {
    "city": "Brooklyn",
    "name": "Long Island College Hospital School Of Nursing",
    "zip": 11201,
    "url": "http://www.albany.net/~orchard/lich.html",
    "bbl": 3002840001,
    "streetname": "HICKS STREET",
    "housenum": 339,
    "address": "339 HICKS STREET",
    "bin": 3002928,
    "institution": "Private",
    "type": "Bachelors",
    "lon": -73.99740082,
    "lat": 40.69055915,
    "Programs": "Health"
  },
  {
    "city": "Brooklyn",
    "name": "New York University / Brooklyn-Metrotech Campus",
    "zip": 11201,
    "url": "http://www.poly.edu/index_ie.cfm",
    "bbl": 3001427501,
    "streetname": "METROTECH CENTER",
    "housenum": 6,
    "address": "6 METROTECH CENTER",
    "bin": 3331744,
    "institution": "Private",
    "type": "Bachelors",
    "lon": -73.9856583,
    "lat": 40.69463216,
    "Programs": "Comprehensive"
  },
  {
    "city": "Brooklyn",
    "name": "Boricua College, Graham Center",
    "zip": 11206,
    "url": "http://www.boricuacollege.edu/",
    "bbl": 3031260001,
    "streetname": "GRAHAM AVENUE",
    "housenum": 9,
    "address": "9 GRAHAM AVENUE",
    "bin": 3071650,
    "institution": "Private",
    "type": "Bachelors",
    "lon": -73.94248382,
    "lat": 40.70129686,
    "Programs": "Comprehensive"
  },
  {
    "city": "New York",
    "name": "Pace University / New York City Campus",
    "zip": 10038,
    "url": "http://www.pace.edu/",
    "bbl": 1001020001,
    "streetname": "PACE PLAZA",
    "housenum": 1,
    "address": "1 PACE PLAZA",
    "bin": 1001357,
    "institution": "Private",
    "type": "Bachelors",
    "lon": -74.00479825,
    "lat": 40.71110496,
    "Programs": "Comprehensive"
  },
  {
    "city": "New York",
    "name": "St. John's University / Manhattan Campus",
    "zip": 10007,
    "url": "http://www.stjohns.edu/pls/portal30/sjudev.school.adminhome",
    "bbl": 1001420100,
    "streetname": "MURRAY STREET",
    "housenum": 101,
    "address": "101 MURRAY STREET",
    "bin": 1001542,
    "institution": "Private",
    "type": "Bachelors",
    "lon": -74.01263555,
    "lat": 40.7154344,
    "Programs": "Comprehensive"
  },
  {
    "city": "New York",
    "name": "Fordham University/Lincoln Center Campus",
    "zip": 10023,
    "url": "http://www.fordham.edu/",
    "bbl": 1011320020,
    "streetname": "WEST 60 STREET",
    "housenum": 113,
    "address": "113 WEST 60 STREET",
    "bin": 1028830,
    "institution": "Private",
    "type": "Bachelors",
    "lon": -73.9851461,
    "lat": 40.77082196,
    "Programs": "Comprehensive"
  },
  {
    "city": "New York",
    "name": "Columbia University",
    "zip": 10027,
    "url": "http://www.columbia.edu/",
    "bbl": 1018860001,
    "streetname": "AMSTERDAM AVENUE",
    "housenum": 1130,
    "address": "1130 AMSTERDAM AVENUE",
    "bin": 1084846,
    "institution": "Private",
    "type": "Bachelors",
    "lon": -73.96166699,
    "lat": 40.80681507,
    "Programs": "Comprehensive"
  },
  {
    "city": "New York",
    "name": "Manhattan School Of Music",
    "zip": 10027,
    "url": "http://www.msmnyc.edu/",
    "bbl": 1019930001,
    "streetname": "CLAREMONT AVENUE",
    "housenum": 120,
    "address": "120 CLAREMONT AVENUE",
    "bin": 1076684,
    "institution": "Private",
    "type": "Bachelors",
    "lon": -73.96148488,
    "lat": 40.81239325,
    "Programs": "Arts"
  },
  {
    "city": "New York",
    "name": "Rockefeller University, The",
    "zip": 10021,
    "url": "http://www.rockefeller.edu/",
    "bbl": "",
    "streetname": "YORK AVENUE",
    "housenum": 1230,
    "address": "1230 YORK AVENUE",
    "bin": 0,
    "institution": "Private",
    "type": "Bachelors",
    "lon": -73.95662756,
    "lat": 40.7628897,
    "Programs": "Health"
  },
  {
    "city": "New York",
    "name": "Cornell University / Weill Medical College Of Cornell University",
    "zip": 10021,
    "url": "http://www.med.cornell.edu/",
    "bbl": 1014800001,
    "streetname": "YORK AVENUE",
    "housenum": 1300,
    "address": "1300 YORK AVENUE",
    "bin": 1084785,
    "institution": "Private",
    "type": "Bachelors",
    "lon": -73.95472938,
    "lat": 40.76473776,
    "Programs": "Health"
  },
  {
    "city": "New York",
    "name": "New School University / Mannes College Of Music",
    "zip": 10024,
    "url": "http://www.mannes.edu/",
    "bbl": 1012150053,
    "streetname": "WEST 85 STREET",
    "housenum": 150,
    "address": "150 WEST 85 STREET",
    "bin": 1032132,
    "institution": "Private",
    "type": "Bachelors",
    "lon": -73.97466143,
    "lat": 40.78642497,
    "Programs": "Arts"
  },
  {
    "city": "New York",
    "name": "New York School Of Interior Design",
    "zip": 10021,
    "url": "http://www.nysid.edu/",
    "bbl": 1014040044,
    "streetname": "EAST 70 STREET",
    "housenum": 170,
    "address": "170 EAST 70 STREET",
    "bin": 1042502,
    "institution": "Private",
    "type": "Bachelors",
    "lon": -73.96245272,
    "lat": 40.76858065,
    "Programs": "Arts"
  },
  {
    "city": "New York",
    "name": "New York College Of Podiatric Medicine",
    "zip": 10035,
    "url": "http://www.nycpm.edu/",
    "bbl": 1017490033,
    "streetname": "PARK AVENUE",
    "housenum": 1800,
    "address": "1800 PARK AVENUE",
    "bin": 1081382,
    "institution": "Private",
    "type": "Bachelors",
    "lon": -73.94025623,
    "lat": 40.80494109,
    "Programs": "Health"
  },
  {
    "city": "New York",
    "name": "Helene Fuld College Of Nursing Of North General Hospital",
    "zip": 10035,
    "url": "http://www.helenefuld.edu/",
    "bbl": 1017470035,
    "streetname": "MADISON AVENUE",
    "housenum": 1879,
    "address": "1879 MADISON AVENUE",
    "bin": 1077376,
    "institution": "Private",
    "type": "Bachelors",
    "lon": -73.94169697,
    "lat": 40.80324529,
    "Programs": "Health"
  },
  {
    "city": "New York",
    "name": "New York University",
    "zip": 10011,
    "url": "http://www.nyu.edu/",
    "bbl": 1005510011,
    "streetname": "WASHINGTON SQUARE NORTH",
    "housenum": 22,
    "address": "22 WASHINGTON SQUARE NORTH",
    "bin": 1080111,
    "institution": "Private",
    "type": "Bachelors",
    "lon": -73.9978778,
    "lat": 40.7320751,
    "Programs": "Comprehensive"
  },
  {
    "city": "New York",
    "name": "Marymount Manhattan College",
    "zip": 10021,
    "url": "http://marymount.mmm.edu/",
    "bbl": 1014260035,
    "streetname": "EAST 71 STREET",
    "housenum": 221,
    "address": "221 EAST 71 STREET",
    "bin": 1083341,
    "institution": "Private",
    "type": "Bachelors",
    "lon": -73.95974674,
    "lat": 40.76872195,
    "Programs": "Liberal Arts"
  },
  {
    "city": "New York",
    "name": "Touro College",
    "zip": 10010,
    "url": "http://www.touro.edu/",
    "bbl": 1008250024,
    "streetname": "WEST 23 STREET",
    "housenum": 27,
    "address": "27 WEST 23 STREET",
    "bin": 1015580,
    "institution": "Private",
    "type": "Bachelors",
    "lon": -73.99057873,
    "lat": 40.74240548,
    "Programs": "Comprehensive"
  },
  {
    "city": "New York",
    "name": "Pratt Institute / Manhattan Campus",
    "zip": 10012,
    "url": "http://www.pratt.edu/",
    "bbl": 1005100045,
    "streetname": "LAFAYETTE STREET",
    "housenum": 295,
    "address": "295 LAFAYETTE STREET",
    "bin": 1007941,
    "institution": "Private",
    "type": "Bachelors",
    "lon": -73.99539778,
    "lat": 40.72453094,
    "Programs": "Arts"
  },
  {
    "city": "New York",
    "name": "Cooper Union, The / For The Advancement Of Science And Art Suite 300",
    "zip": 10003,
    "url": "http://www.cooper.edu/",
    "bbl": 1005440048,
    "streetname": "COOPER SQUARE",
    "housenum": 30,
    "address": "30 COOPER SQUARE",
    "bin": 1008779,
    "institution": "Private",
    "type": "Bachelors",
    "lon": -73.99162508,
    "lat": 40.72813483,
    "Programs": "Niche"
  },
  {
    "city": "New York",
    "name": "Barnard College",
    "zip": 10027,
    "url": "http://www.barnard.edu/",
    "bbl": 1019890001,
    "streetname": "BROADWAY",
    "housenum": 3009,
    "address": "3009 BROADWAY",
    "bin": 1082351,
    "institution": "Private",
    "type": "Bachelors",
    "lon": -73.96394826,
    "lat": 40.80913269,
    "Programs": "Comprehensive"
  },
  {
    "city": "New York",
    "name": "Jewish Theological Seminary / List College Of Jewish Studies",
    "zip": 10027,
    "url": "http://www.jtsa.edu/",
    "bbl": 1019770001,
    "streetname": "BROADWAY",
    "housenum": 3080,
    "address": "3080 BROADWAY",
    "bin": 1059669,
    "institution": "Private",
    "type": "Bachelors",
    "lon": -73.96001031,
    "lat": 40.81180163,
    "Programs": "Liberal Arts"
  },
  {
    "city": "New York",
    "name": "Phillips Beth Israel School Of Nursing",
    "zip": 10010,
    "url": "http://wehealny.org/bischoolofnursing/index.html",
    "bbl": 1009270055,
    "streetname": "EAST 22 STREET",
    "housenum": 310,
    "address": "310 EAST 22 STREET",
    "bin": 1020567,
    "institution": "Private",
    "type": "Bachelors",
    "lon": -73.98105494,
    "lat": 40.73686062,
    "Programs": "Health"
  },
  {
    "city": "New York",
    "name": "Boricua College",
    "zip": 10032,
    "url": "http://www.boricuacollege.edu/",
    "bbl": 1021340053,
    "streetname": "BROADWAY",
    "housenum": 3755,
    "address": "3755 BROADWAY",
    "bin": 1063250,
    "institution": "Private",
    "type": "Bachelors",
    "lon": -73.9458788,
    "lat": 40.83347318,
    "Programs": "Liberal Arts"
  },
  {
    "city": "New York",
    "name": "Cornell University / Weill Graduate School Of Medical Sciences Of Cornell University",
    "zip": 10021,
    "url": "http://www.med.cornell.edu/gradschool/",
    "bbl": 1014640021,
    "streetname": "EAST 69 STREET",
    "housenum": 445,
    "address": "445 EAST 69 STREET",
    "bin": 1045585,
    "institution": "Private",
    "type": "Graduate",
    "lon": -73.95538181,
    "lat": 40.76523174,
    "Programs": "Health"
  },
  {
    "city": "New York",
    "name": "American Academy Mcallister Institute Of Funeral Service",
    "zip": 10019,
    "url": "http://www.a-a-m-i.org/",
    "bbl": 1010650001,
    "streetname": "WEST 56 STREET",
    "housenum": 450,
    "address": "450 WEST 56 STREET",
    "bin": 1026841,
    "institution": "Private",
    "type": "Community",
    "lon": -73.98864639,
    "lat": 40.76787351,
    "Programs": "Niche"
  },
  {
    "city": "New York",
    "name": "Yeshiva University",
    "zip": 10033,
    "url": "http://www.yu.edu/",
    "bbl": 1021560016,
    "streetname": "WEST 185 STREET",
    "housenum": 500,
    "address": "500 WEST 185 STREET",
    "bin": 1063719,
    "institution": "Private",
    "type": "Bachelors",
    "lon": -73.92980469,
    "lat": 40.85053977,
    "Programs": "Comprehensive"
  },
  {
    "city": "New York",
    "name": "Teachers College, Columbia University",
    "zip": 10027,
    "url": "http://www.tc.columbia.edu/",
    "bbl": 1019750001,
    "streetname": "WEST 120 STREET",
    "housenum": 525,
    "address": "525 WEST 120 STREET",
    "bin": 1083643,
    "institution": "Private",
    "type": "Graduate",
    "lon": -73.96028717,
    "lat": 40.81029419,
    "Programs": "Niche"
  },
  {
    "city": "New York",
    "name": "New School University / Jazz And Contemporary Music Program",
    "zip": 10011,
    "url": "http://www.newschool.edu/jazz/",
    "bbl": 1005770071,
    "streetname": "WEST 13 STREET",
    "housenum": 55,
    "address": "55 WEST 13 STREET",
    "bin": 1009722,
    "institution": "Private",
    "type": "Bachelors",
    "lon": -73.99649861,
    "lat": 40.73655389,
    "Programs": "Arts"
  },
  {
    "city": "New York",
    "name": "Bank Street College Of Education / Graduate School Of Education",
    "zip": 10025,
    "url": "http://www.bankstreet.edu/",
    "bbl": 1018940056,
    "streetname": "WEST 112 STREET",
    "housenum": 610,
    "address": "610 WEST 112 STREET",
    "bin": 1057331,
    "institution": "Private",
    "type": "Graduate",
    "lon": -73.96666836,
    "lat": 40.80557809,
    "Programs": "Niche"
  },
  {
    "city": "New York",
    "name": "New School University / Eugene Lang College",
    "zip": 10011,
    "url": "http://www.lang.edu/",
    "bbl": 1005750017,
    "streetname": "WEST 11 STREET",
    "housenum": 65,
    "address": "65 WEST 11 STREET",
    "bin": 1009567,
    "institution": "Private",
    "type": "Bachelors",
    "lon": -73.9974768,
    "lat": 40.73526236,
    "Programs": "Liberal Arts"
  },
  {
    "city": "New York",
    "name": "The City College of New York (CUNY)",
    "zip": 10031,
    "url": "http://www1.ccny.cuny.edu/",
    "bbl": 1019570200,
    "streetname": "CONVENT AVENUE",
    "housenum": 160,
    "address": "160 CONVENT AVENUE",
    "bin": 1084081,
    "institution": "Public",
    "type": "Bachelors",
    "lon": -73.95026316,
    "lat": 40.81940117,
    "Programs": "Comprehensive"
  },
  {
    "city": "Manhattan",
    "name": "New York Law School",
    "zip": 10013,
    "url": "https://www.nyls.edu/",
    "bbl": "",
    "streetname": "W BROADWAY",
    "housenum": 185,
    "address": "185 W BROADWAY",
    "bin": "",
    "institution": "Private",
    "type": "Graduate",
    "lon": -74.00690079,
    "lat": 40.71810476,
    "Programs": "Law"
  },
  {
    "city": "Brooklyn",
    "name": "Brooklyn Law School",
    "zip": 11201,
    "url": "https://www.brooklaw.edu/",
    "bbl": "",
    "streetname": "JORALEMON ST",
    "housenum": 250,
    "address": "250 JORALEMON ST",
    "bin": "",
    "institution": "Private",
    "type": "Graduate",
    "lon": -73.9896,
    "lat": 40.6918,
    "Programs": "Law"
  },
  {
    "city": "Manhattan",
    "name": "Cardozo School of Law",
    "zip": 10003,
    "url": "https://cardozo.yu.edu/",
    "bbl": "",
    "streetname": "5TH AVE",
    "housenum": 55,
    "address": "55 5TH AVE",
    "bin": "",
    "institution": "Private",
    "type": "Graduate",
    "lon": -73.99407,
    "lat": 40.73472,
    "Programs": "Law"
  }
]
